{"type":"FeatureCollection","features":[
{"type":"Feature","geometry":{"type":"Point","coordinates":[120.2115564,22.9828468]},"properties":{"addr:city":"臺南市","amenity":"charging_station","brand":"台塑石油","fuel:octane_92":"yes","fuel:octane_95":"yes","fuel:octane_98":"yes","name":"Gogoro 換電站 台亞大同路加油站","opening_hours":"24/7","phone":"+88662139975","wheelchair":"no"}},
{"type":"Feature","geometry":{"type":"Point","coordinates":[121.4479064,25.0642445]},"properties":{"amenity":"charging_station"}},
{"type":"Feature","geometry":{"type":"Point","coordinates":[120.7803173,24.2749748]},"properties":{"amenity":"charging_station"}},
{"type":"Feature","geometry":{"type":"Point","coordinates":[120.5397166,24.0858833]},"properties":{"amenity":"charging_station","name":"充電室"}},
{"type":"Feature","geometry":{"type":"Point","coordinates":[121.4529721,25.0445786]},"properties":{"amenity":"charging_station"}},
{"type":"Feature","geometry":{"type":"Point","coordinates":[121.5370166,24.960521]},"properties":{"amenity":"charging_station"}},
{"type":"Feature","geometry":{"type":"Point","coordinates":[121.4653747,25.0167771]},"properties":{"amenity":"charging_station","name":"BES電池交換站","operator":"台灣城市動力","scooter":"yes"}},
{"type":"Feature","geometry":{"type":"Point","coordinates":[121.1923304,24.8003452]},"properties":{"amenity":"charging_station","name":"電動車充電站"}},
{"type":"Feature","geometry":{"type":"Point","coordinates":[121.4586405,25.0073178]},"properties":{"amenity":"charging_station","name":"板橋後站","network":"BES 電池交換站","operator":"台灣城市動力股份有限公司","scooter":"yes"}},
{"type":"Feature","geometry":{"type":"Point","coordinates":[121.4203508,24.9811464]},"properties":{"amenity":"charging_station","name":"BES電池交換站 有利站","operator":"台灣城市動力股份有限公司","ref":"17","scooter":"yes","website":"http://www.citypower.com.tw/"}},
{"type":"Feature","geometry":{"type":"Point","coordinates":[121.4563526,25.0130345]},"properties":{"amenity":"charging_station","name":"BES電池交換站 板橋體育館站","operator":"台灣城市動力股份有限公司","scooter":"yes","website":"http://www.citypower.com.tw/stations/15"}},
{"type":"Feature","geometry":{"type":"Point","coordinates":[121.4643381,24.9975666]},"properties":{"amenity":"charging_station","name":"BES電池交換站 和平公園站","operator":"台灣城市動力股份有限公司","website":"http://www.citypower.com.tw/stations/7"}},
{"type":"Feature","geometry":{"type":"Point","coordinates":[121.4202873,24.9819775]},"properties":{"amenity":"charging_station","name":"Gogoro GoStation 中油山隆樹林站","operator":"睿能創意股份有限公司","scooter":"yes"}},
{"type":"Feature","geometry":{"type":"Point","coordinates":[120.6752218,24.1209534]},"properties":{"amenity":"charging_station"}},
{"type":"Feature","geometry":{"type":"Point","coordinates":[121.6498532,25.2093658]},"properties":{"amenity":"charging_station","name":"Go Station 換電站 - 中油北基基金站","name:en":"Go Station","name:zh":"Go Station 換電站 - 中油北基基金站","operator":"Gogoro Inc."}},
{"type":"Feature","geometry":{"type":"Point","coordinates":[121.5614161,25.2912061]},"properties":{"amenity":"charging_station","name":"Go Station 換電站 - 中油石門加油站","name:en":"Go Station","name:zh":"Go Station 換電站 - 中油石門加油站","operator":"Gogoro Inc."}},
{"type":"Feature","geometry":{"type":"Point","coordinates":[121.4777053,25.2598491]},"properties":{"amenity":"charging_station","name":"Go Station 換電站 - 大嘉好加油站","name:en":"Go Station","name:zh":"Go Station 換電站 - 大嘉好加油站","operator":"Gogoro Inc."}},
{"type":"Feature","geometry":{"type":"Point","coordinates":[121.446183,25.1918801]},"properties":{"amenity":"charging_station","name":"Go Station 換電站 - 中油淡海新市鎮站","name:en":"Go Station","name:zh":"Go Station 換電站 - 中油淡海新市鎮站","operator":"Gogoro Inc."}},
{"type":"Feature","geometry":{"type":"Point","coordinates":[121.5039192,25.116414]},"properties":{"amenity":"charging_station","name":"Go Station 換電站 - 台亞承德路站","name:en":"Go Station","name:zh":"Go Station 換電站 - 台亞承德路站","operator":"Gogoro Inc."}},
{"type":"Feature","geometry":{"type":"Point","coordinates":[121.5457734,25.1353594]},"properties":{"amenity":"charging_station","name":"Go Station 換電站 - 中油陽明山站","name:en":"Go Station","name:zh":"Go Station 換電站 - 中油陽明山站","operator":"Gogoro Inc."}},
{"type":"Feature","geometry":{"type":"Point","coordinates":[121.5271774,25.0924569]},"properties":{"amenity":"charging_station","name":"Go Station 換電站 - 中油福林站","name:en":"Go Station","name:zh":"Go Station 換電站 - 中油福林站","operator":"Gogoro Inc."}},
{"type":"Feature","geometry":{"type":"Point","coordinates":[121.5222022,25.0884212]},"properties":{"amenity":"charging_station","name":"Go Station 換電站 - 禾悅生活士林店","name:en":"Go Station","name:zh":"Go Station 換電站 - 禾悅生活士林店","operator":"Gogoro Inc."}},
{"type":"Feature","geometry":{"type":"Point","coordinates":[121.5257407,25.0873241]},"properties":{"amenity":"charging_station","branch":"Gogoro 士林店","name":"Go Station 換電站","name:en":"Go Station","name:zh":"Go Station 換電站","operator":"Gogoro Inc."}},
{"type":"Feature","geometry":{"type":"Point","coordinates":[121.5108481,25.0856256]},"properties":{"amenity":"charging_station","name":"Go Station - 孚海國際車業站","name:en":"Go Station","name:zh":"Go Station - 孚海國際車業站","operator":"Gogoro Inc."}},
{"type":"Feature","geometry":{"type":"Point","coordinates":[121.4156235,24.9717966]},"properties":{"amenity":"charging_station","name":"Gogoro GoStation 中油永錡彭厝站","operator":"睿能創意股份有限公司","scooter":"yes"}},
{"type":"Feature","geometry":{"type":"Point","coordinates":[120.7196062,24.1252442]},"properties":{"amenity":"charging_station"}},
{"type":"Feature","geometry":{"type":"Point","coordinates":[120.6650434,24.1493999]},"properties":{"amenity":"charging_station","network":"台中市電動機車充電站"}},
{"type":"Feature","geometry":{"type":"Point","coordinates":[121.5042186,25.0308252]},"properties":{"addr:city":"臺北市","addr:country":"TW","addr:district":"中正區","addr:housenumber":"165","addr:postcode":"100","addr:street":"中華路二段","amenity":"charging_station","name":"gogoro"}},
{"type":"Feature","geometry":{"type":"Point","coordinates":[118.317326,24.4325657]},"properties":{"amenity":"charging_station","operator":"EZ Swap"}},
{"type":"Feature","geometry":{"type":"Point","coordinates":[121.3952173,25.01457]},"properties":{"addr:city":"新北市","addr:country":"TW","addr:district":"樹林區","addr:housenumber":"50","addr:postcode":"238","addr:street":"三興路","amenity":"charging_station","name":"GoStation 中油大慶加油站","operator":"gogoro"}},
{"type":"Feature","geometry":{"type":"Point","coordinates":[121.7436973,25.1303539]},"properties":{"amenity":"charging_station","branch":"基隆東岸地下停車場站","brand":"Gogoro 電池交換站","brand:wikidata":"Q19880591","description":"電池交換站位於地下一樓的機車停車場區域","level":"-1","name":"Gogoro 電池交換站","operator":"Gogoro 電池交換站","operator:wikidata":"Q19880591"}},
{"type":"Feature","geometry":{"type":"Point","coordinates":[121.7511718,25.1292681]},"properties":{"amenity":"charging_station","brand":"Gogoro 電池交換站","brand:wikidata":"Q19880591","brand:wikipedia":"zh:Gogoro","level":"0","name":"Gogoro 電池交換站 WorldGym 信義店 Sport站","operator":"Gogoro 電池交換站","operator:wikidata":"Q19880591","operator:wikipedia":"zh:Gogoro"}},
{"type":"Feature","geometry":{"type":"Point","coordinates":[121.8235874,25.1210417]},"properties":{"amenity":"charging_station","branch":"林長站","brand":"Gogoro 電池交換站","brand:wikidata":"Q19880591","level":"0","name":"GOGORO 電池交換站","operator":"Gogoro 電池交換站","operator:wikidata":"Q19880591"}},
{"type":"Feature","geometry":{"type":"Point","coordinates":[121.7760971,25.0401632]},"properties":{"amenity":"charging_station","brand":"Gogoro 電池交換站","brand:wikidata":"Q19880591","level":"0","name":"Gogoro 電池交換站 南山社區站","operator":"Gogoro 電池交換站","operator:wikidata":"Q19880591"}},
{"type":"Feature","geometry":{"type":"Point","coordinates":[121.7379883,25.1268794]},"properties":{"amenity":"charging_station","brand":"Gogoro 電池交換站","brand:wikidata":"Q19880591","level":"0","name":"GOGORO 電池交換站 中油成功一路站","operator":"Gogoro 電池交換站","operator:wikidata":"Q19880591"}},
{"type":"Feature","geometry":{"type":"Point","coordinates":[121.7188453,25.1266343]},"properties":{"amenity":"charging_station","brand":"Gogoro 電池交換站","brand:wikidata":"Q19880591","name":"Gogoro 電池交換站 中油安樂站","operator":"Gogoro 電池交換站","operator:wikidata":"Q19880591"}},
{"type":"Feature","geometry":{"type":"Point","coordinates":[121.5387466,24.9949974]},"properties":{"amenity":"charging_station"}},
{"type":"Feature","geometry":{"type":"Point","coordinates":[121.1432297,24.9050546]},"properties":{"amenity":"charging_station","name":"台灣電力公司","name:zh":"台灣電力公司"}},
{"type":"Feature","geometry":{"type":"Point","coordinates":[120.2520213,22.9701788]},"properties":{"amenity":"charging_station"}},
{"type":"Feature","geometry":{"type":"Point","coordinates":[120.6871966,24.137306]},"properties":{"amenity":"charging_station","fee":"no","layer":"2","level":"2","mobile_phones":"yes","netbook":"yes","socket":"USB","voltage":"110"}},
{"type":"Feature","geometry":{"type":"Point","coordinates":[121.421369,24.9960604]},"properties":{"amenity":"charging_station","bicycle":"no","fee":"yes","motorcar":"no","name":"GoStation 中油永錡保安站","operator":"gogoro","scooter":"only","truck":"no"}},
{"type":"Feature","geometry":{"type":"Point","coordinates":[121.6022681,25.0839877]},"properties":{"amenity":"charging_station","brand":"Gogoro 電池交換站","brand:wikidata":"Q19880591","name":"Gogoro 電池交換站","note":"Gogoro 充電站，24格","operator":"Gogoro 電池交換站","operator:wikidata":"Q19880591"}},
{"type":"Feature","geometry":{"type":"Point","coordinates":[121.4365166,25.032488]},"properties":{"amenity":"charging_station","bicycle":"no","capacity":"24","fee":"yes","motorcar":"no","name":"GoStation 台北捷運輔大站(3號出口)","operator":"gogoro","scooter":"only","truck":"no"}},
{"type":"Feature","geometry":{"type":"Point","coordinates":[121.4364347,25.0331]},"properties":{"amenity":"charging_station","bicycle":"no","construction":"yes","fee":"yes","motorcar":"no","name":"GoStation 台北捷運輔大站(4號出口)","operator":"gogoro","scooter":"only","truck":"no"}},
{"type":"Feature","geometry":{"type":"Point","coordinates":[121.2381834,25.0816019]},"properties":{"amenity":"charging_station"}},
{"type":"Feature","geometry":{"type":"Point","coordinates":[121.2373607,25.0824714]},"properties":{"amenity":"charging_station"}},
{"type":"Feature","geometry":{"type":"Point","coordinates":[121.2384141,25.0813467]},"properties":{"amenity":"charging_station"}},
{"type":"Feature","geometry":{"type":"Point","coordinates":[121.5215098,25.0687213]},"properties":{"amenity":"charging_station","brand":"Tesla, Inc.","brand:wikidata":"Q478214","capacity":"6","motorcar":"yes","name":"臺北花博超級充電站","name:en":"Taipei Expo Park Supercharger","name:zh":"臺北花博超級充電站","network":"Tesla","opening_hours":"24/7","operator":"Tesla, Inc.","operator:wikidata":"Q478214","short_name":"Tesla","socket:tesla_supercharger":"6","website":"https://www.tesla.com/findus/location/supercharger/taipeiexpoparksupercharger"}},
{"type":"Feature","geometry":{"type":"Point","coordinates":[120.600252,24.2549704]},"properties":{"amenity":"charging_station","capacity":"5","charging":"mobil_phones"}},
{"type":"Feature","geometry":{"type":"Point","coordinates":[118.4302005,24.5026469]},"properties":{"amenity":"charging_station","charging":"scooter"}},
{"type":"Feature","geometry":{"type":"Point","coordinates":[118.4140062,24.4886406]},"properties":{"amenity":"charging_station","charging":"motorcycle"}},
{"type":"Feature","geometry":{"type":"Point","coordinates":[120.1947852,22.9750163]},"properties":{"amenity":"charging_station","name":"gogoro換電站"}},
{"type":"Feature","geometry":{"type":"Point","coordinates":[120.1871096,22.9882937]},"properties":{"amenity":"charging_station","name":"gogoro換電站"}},
{"type":"Feature","geometry":{"type":"Point","coordinates":[121.5491,25.0219871]},"properties":{"amenity":"charging_station","network":"BMW","operator":"BMW","operator:wikidata":"Q26678"}},
{"type":"Feature","geometry":{"type":"Point","coordinates":[121.6316255,24.0268576]},"properties":{"amenity":"charging_station"}},
{"type":"Feature","geometry":{"type":"Point","coordinates":[120.202,22.9811]},"properties":{"amenity":"charging_station","description":"(充電站)臺南市南區台南高商"}},
{"type":"Feature","geometry":{"type":"Point","coordinates":[121.5145122,25.0485745]},"properties":{"amenity":"charging_station","name":"機場捷運手機充電站/無線上網站","name:ja":"携帯電話充電スポット"}},
{"type":"Feature","geometry":{"type":"Point","coordinates":[121.4675471,24.9937322]},"properties":{"amenity":"charging_station"}},
{"type":"Feature","geometry":{"type":"Point","coordinates":[121.3003119,24.9928795]},"properties":{"amenity":"charging_station","name":"電動車太陽能充電站"}},
{"type":"Feature","geometry":{"type":"Point","coordinates":[120.4566689,23.4895305]},"properties":{"amenity":"charging_station","operator":"Gogoro"}},
{"type":"Feature","geometry":{"type":"Point","coordinates":[120.6082927,22.5951699]},"properties":{"amenity":"charging_station","operator":"萬金停車場"}},
{"type":"Feature","geometry":{"type":"Point","coordinates":[120.7600075,24.4621653]},"properties":{"addr:city":"苗栗縣","addr:country":"TW","addr:district":"銅鑼鄉","addr:housenumber":"6","addr:province":"台灣省","addr:street":"銅科六路","amenity":"charging_station","name":"苗栗銅鑼科學園區超級充電站","operator":"Tesla Motors","socket:tesla_supercharger":"10"}},
{"type":"Feature","geometry":{"type":"Point","coordinates":[120.7032363,24.2071259]},"properties":{"addr:city":"臺中市","addr:country":"TW","addr:district":"潭子區","addr:housenumber":"239","addr:postcode":"42750","addr:street":"圓通南路","amenity":"charging_station","branch":"7-ELEVEN 圓通南店站","brand":"Gogoro 電池交換站","brand:wikidata":"Q19880591","name":"Gogoro 電池交換站","operator":"Gogoro 電池交換站","operator:wikidata":"Q19880591"}},
{"type":"Feature","geometry":{"type":"Point","coordinates":[121.3868732,25.0772985]},"properties":{"amenity":"charging_station","name":"GoStation"}},
{"type":"Feature","geometry":{"type":"Point","coordinates":[120.5378464,24.2451225]},"properties":{"amenity":"charging_station","operator":"gogoro電池站"}},
{"type":"Feature","geometry":{"type":"Point","coordinates":[121.4241777,25.0238655]},"properties":{"amenity":"charging_station","brand":"Gogoro 電池交換站","brand:wikidata":"Q19880591","capacity":"24","description":"新北市新莊區富國路176巷 新莊福營休閒廣場內","name":"Gogoro 電池交換站 新莊福營休閒廣場站","name:en":"Gogoro GoStation","name:zh":"Gogoro 電池交換站 新莊福營休閒廣場站","operator":"Gogoro 電池交換站","operator:wikidata":"Q19880591"}},
{"type":"Feature","geometry":{"type":"Point","coordinates":[120.7118802,24.1540575]},"properties":{"addr:city":"台中市","addr:country":"TW","addr:district":"太平區","addr:housenumber":"117","addr:place":"新高里","addr:postcode":"411","addr:street":"樹德路","amenity":"charging_station","capacity":"20","name":"Gogoro 全聯台中太平店站","name:zh":"Gogoro 全聯台中太平店站","operator":"Gogoro","website":"https://www.gogoro.com/tw/"}},
{"type":"Feature","geometry":{"type":"Point","coordinates":[120.7153305,24.1493462]},"properties":{"addr:city":"台中市","addr:country":"TW","addr:district":"太平區","addr:housenumber":"567","addr:place":"新坪里","addr:postcode":"411","addr:street":"環中東路三段","amenity":"charging_station","capacity":"20","name":"Gogoro 家樂福便利購太平環中店站","name:zh":"Gogoro 家樂福便利購太平環中店站","operator":"Gogoro","website":"https://www.gogoro.com/tw/"}},
{"type":"Feature","geometry":{"type":"Point","coordinates":[120.6856356,24.1410741]},"properties":{"amenity":"charging_station","operator":"gogoro"}},
{"type":"Feature","geometry":{"type":"Point","coordinates":[120.7037912,24.2014059]},"properties":{"addr:city":"臺中市","addr:country":"TW","addr:district":"潭子區","addr:housenumber":"5","addr:postcode":"427013","addr:street":"環中東路一段","amenity":"charging_station","branch":"7-ELEVEN 潭厝店站","brand":"Gogoro 電池交換站","brand:wikidata":"Q19880591","name":"Gogoro 電池交換站","operator":"Gogoro 電池交換站","operator:wikidata":"Q19880591"}},
{"type":"Feature","geometry":{"type":"Point","coordinates":[120.7129583,24.2586298]},"properties":{"addr:city":"臺中市","addr:country":"TW","addr:district":"神岡區","addr:housenumber":"1","addr:street":"五權路","amenity":"charging_station","branch":"全聯豐原三豐店站","name":"Gogoro 電池交換站","operator":"睿能創意股份有限公司"}},
{"type":"Feature","geometry":{"type":"Point","coordinates":[120.8258506,24.0235225]},"properties":{"addr:city":"南投縣","addr:country":"TW","addr:district":"國姓鄉","addr:full":"544南投縣國姓鄉中正路一段100-1號","addr:housenumber":"100-1","addr:postcode":"544","addr:province":"台灣省","addr:street":"中正路一段","amenity":"charging_station","branch":"HiLife 南投國姓店站","brand":"Gogoro 電池交換站","brand:wikidata":"Q19880591","name":"Gogoro 電池交換站","operator":"Gogoro 電池交換站","operator:wikidata":"Q19880591"}},
{"type":"Feature","geometry":{"type":"Point","coordinates":[120.7146228,24.2391332]},"properties":{"addr:city":"臺中市","addr:country":"TW","addr:district":"豐原區","addr:housenumber":"118","addr:street":"豐南街","amenity":"charging_station","branch":"家樂褔便利購豐南店站","name":"Gogoro 電池交換站","operator":"睿能創意股份有限公司"}},
{"type":"Feature","geometry":{"type":"Point","coordinates":[120.7210392,24.2396014]},"properties":{"addr:city":"臺中市","addr:country":"TW","addr:district":"豐原區","addr:housenumber":"182","addr:street":"田心路二段","amenity":"charging_station","branch":"全聯豐原田心店站","name":"Gogoro 電池交換站","operator":"睿能創意股份有限公司"}},
{"type":"Feature","geometry":{"type":"Point","coordinates":[120.708778,24.2458344]},"properties":{"addr:city":"臺中市","addr:country":"TW","addr:district":"豐原區","addr:housenumber":"198","addr:postcode":"42053","addr:street":"成功路","amenity":"charging_station","branch":"全聯豐原成功店站","brand":"Gogoro 電池交換站","brand:wikidata":"Q19880591","name":"Gogoro 電池交換站","operator":"Gogoro 電池交換站","operator:wikidata":"Q19880591"}},
{"type":"Feature","geometry":{"type":"Point","coordinates":[120.7067339,24.2520085]},"properties":{"addr:city":"臺中市","addr:country":"TW","addr:district":"豐原區","addr:housenumber":"500","addr:postcode":"420","addr:street":"成功路","amenity":"charging_station","branch":"家樂福豐原店站","name":"Gogoro 電池交換站","operator":"睿能創意股份有限公司"}},
{"type":"Feature","geometry":{"type":"Point","coordinates":[120.715095,24.2518884]},"properties":{"addr:city":"臺中市","addr:country":"TW","addr:district":"豐原區","addr:floor":"1","addr:housenumber":"6","addr:street":"豐西街","amenity":"charging_station","branch":"Gogoro 豐原中山服務中心站","brand":"Gogoro 電池交換站","brand:wikidata":"Q19880591","name":"Gogoro 電池交換站","operator":"Gogoro 電池交換站","operator:wikidata":"Q19880591"}},
{"type":"Feature","geometry":{"type":"Point","coordinates":[120.721814,24.2532352]},"properties":{"addr:city":"臺中市","addr:country":"TW","addr:district":"豐原區","addr:housenumber":"38","addr:street":"中正路","amenity":"charging_station","branch":"Gogoro 豐原中正門市店站","brand":"Gogoro 電池交換站","brand:wikidata":"Q19880591","name":"Gogoro 電池交換站","operator":"Gogoro 電池交換站","operator:wikidata":"Q19880591"}},
{"type":"Feature","geometry":{"type":"Point","coordinates":[120.7207349,24.2539072]},"properties":{"amenity":"charging_station","branch":"HiLife 豐原豐民店站","brand":"Gogoro 電池交換站","brand:wikidata":"Q19880591","name":"Gogoro 電池交換站","operator":"Gogoro 電池交換站","operator:wikidata":"Q19880591"}},
{"type":"Feature","geometry":{"type":"Point","coordinates":[120.7318513,24.2503843]},"properties":{"addr:city":"臺中市","addr:country":"TW","addr:district":"豐原區","addr:housenumber":"171","addr:postcode":"42048","addr:street":"豐東路","amenity":"charging_station","branch":"全聯豐原豐東店站","brand":"Gogoro 電池交換站","brand:wikidata":"Q19880591","name":"Gogoro 電池交換站","operator":"Gogoro 電池交換站","operator:wikidata":"Q19880591"}},
{"type":"Feature","geometry":{"type":"Point","coordinates":[120.6864405,24.182745]},"properties":{"amenity":"charging_station","operator":"電動機車充電站"}},
{"type":"Feature","geometry":{"type":"Point","coordinates":[120.7004031,24.2116044]},"properties":{"addr:city":"臺中市","addr:country":"TW","addr:district":"潭子區","addr:housenumber":"209","addr:postcode":"42750","addr:street":"勝利路","amenity":"charging_station","branch":"HiLife 潭子曇晨店站","brand":"Gogoro 電池交換站","brand:wikidata":"Q19880591","brand:wikipedia":"zh:Gogoro","name":"Gogoro 電池交換站","operator":"Gogoro 電池交換站","operator:wikidata":"Q19880591","operator:wikipedia":"zh:Gogoro"}},
{"type":"Feature","geometry":{"type":"Point","coordinates":[120.8241057,24.2616816]},"properties":{"addr:city":"臺中市","addr:country":"TW","addr:district":"東勢區","addr:housenumber":"678","addr:postcode":"42353","addr:street":"豐勢路","amenity":"charging_station","branch":"中油東勢加油站","brand":"Gogoro 電池交換站","brand:wikidata":"Q19880591","brand:wikipedia":"zh:Gogoro","name":"Gogoro 電池交換站","operator":"Gogoro 電池交換站","operator:wikidata":"Q19880591","operator:wikipedia":"zh:Gogoro"}},
{"type":"Feature","geometry":{"type":"Point","coordinates":[120.9037133,24.169174]},"properties":{"addr:city":"臺中市","addr:country":"TW","addr:district":"和平區","addr:housenumber":"5","addr:street":"東關路三段","amenity":"charging_station","branch":"中油台中和平加油站","brand":"Gogoro 電池交換站","brand:wikidata":"Q19880591","brand:wikipedia":"zh:Gogoro","name":"Gogoro 電池交換站","operator":"Gogoro 電池交換站","operator:wikidata":"Q19880591","operator:wikipedia":"zh:Gogoro"}},
{"type":"Feature","geometry":{"type":"Point","coordinates":[120.7345849,24.2596126]},"properties":{"addr:city":"臺中市","addr:country":"TW","addr:district":"豐原區","addr:housenumber":"588","addr:street":"豐勢路一段","amenity":"charging_station","branch":"中油翁子加油站","name":"Gogoro 電池交換站","operator":"英屬開曼群島商睿能新動力股份有限公司台灣分公司","postal_code":"42085"}},
{"type":"Feature","geometry":{"type":"Point","coordinates":[120.5584246,22.6592239]},"properties":{"amenity":"charging_station","fee":"no","name":"手機充電站"}},
{"type":"Feature","geometry":{"type":"Point","coordinates":[120.7013757,24.1796568]},"properties":{"addr:city":"臺中市","addr:country":"TW","addr:district":"北屯區","addr:housenumber":"951","addr:street":"北屯路","amenity":"charging_station","branch":"中油北屯加油站","brand":"Gogoro 電池交換站","brand:wikidata":"Q19880591","name":"Gogoro 電池交換站","operator":"Gogoro 電池交換站","operator:wikidata":"Q19880591"}},
{"type":"Feature","geometry":{"type":"Point","coordinates":[120.6989124,24.1756915]},"properties":{"amenity":"charging_station","branch":"全聯台中北屯二店站","brand":"Gogoro 電池交換站","brand:wikidata":"Q19880591","name":"Gogoro 電池交換站","operator":"Gogoro 電池交換站","operator:wikidata":"Q19880591"}},
{"type":"Feature","geometry":{"type":"Point","coordinates":[120.6948979,24.171295]},"properties":{"amenity":"charging_station","branch":"Gogoro 北屯文心授權服務中心站","brand":"Gogoro 電池交換站","brand:wikidata":"Q19880591","name":"Gogoro 電池交換站","operator":"Gogoro 電池交換站","operator:wikidata":"Q19880591"}},
{"type":"Feature","geometry":{"type":"Point","coordinates":[120.6908241,24.1708963]},"properties":{"amenity":"charging_station","branch":"中油昌平路加油站","name":"Gogoro 電池交換站","operator":"英屬開曼群島商睿能新動力股份有限公司台灣分公司"}},
{"type":"Feature","geometry":{"type":"Point","coordinates":[120.686595,24.1935877]},"properties":{"amenity":"charging_station","branch":"7-ELEVEN 豐樂店站","name":"Gogoro 電池交換站","operator":"英屬開曼群島商睿能新動力股份有限公司台灣分公司"}},
{"type":"Feature","geometry":{"type":"Point","coordinates":[120.681615,24.1932693]},"properties":{"addr:city":"臺中市","addr:country":"TW","addr:district":"北屯區","addr:housenumber":"523","addr:street":"四平路","amenity":"charging_station","branch":"全聯台中四平店站","name":"Gogoro 電池交換站","operator":"英屬開曼群島商睿能新動力股份有限公司台灣分公司","postal_code":"40679"}},
{"type":"Feature","geometry":{"type":"Point","coordinates":[120.7320362,24.2512589]},"properties":{"amenity":"charging_station"}},
{"type":"Feature","geometry":{"type":"Point","coordinates":[120.7043227,24.2317691]},"properties":{"addr:city":"臺中市","addr:country":"TW","addr:district":"豐原區","addr:housenumber":"2","addr:street":"三和路349巷","amenity":"charging_station","branch":"HiLife 豐原三和店站","name":"Gogoro 電池交換站","operator":"英屬開曼群島商睿能新動力股份有限公司台灣分公司","postal_code":"42057"}},
{"type":"Feature","geometry":{"type":"Point","coordinates":[120.6859083,24.1725521]},"properties":{"addr:city":"臺中市","addr:country":"TW","addr:district":"北屯區","addr:housenumber":"613","addr:street":"文心路四段","amenity":"charging_station","branch":"福懋文心路加油站","brand":"Gogoro 電池交換站","brand:wikidata":"Q19880591","name":"Gogoro 電池交換站","operator":"Gogoro 電池交換站","operator:wikidata":"Q19880591","postal_code":"40654"}},
{"type":"Feature","geometry":{"type":"Point","coordinates":[120.6276461,24.3505733]},"properties":{"amenity":"charging_station","branch":"福懋大甲加油站","brand":"Gogoro 電池交換站","brand:wikidata":"Q19880591","name":"Gogoro 電池交換站","operator":"Gogoro 電池交換站","operator:wikidata":"Q19880591"}},
{"type":"Feature","geometry":{"type":"Point","coordinates":[120.6318517,24.3547987]},"properties":{"amenity":"charging_station","branch":"中油大甲加油站","name":"Gogoro 電池交換站","operator":"英屬開曼群島商睿能新動力股份有限公司台灣分公司"}},
{"type":"Feature","geometry":{"type":"Point","coordinates":[120.62005,24.3463338]},"properties":{"amenity":"charging_station","branch":"全聯台中大甲店站","brand":"Gogoro 電池交換站","brand:wikidata":"Q19880591","name":"Gogoro 電池交換站","operator":"Gogoro 電池交換站","operator:wikidata":"Q19880591"}},
{"type":"Feature","geometry":{"type":"Point","coordinates":[120.6168471,24.3492467]},"properties":{"amenity":"charging_station","branch":"HiLife 中縣大甲店站","brand":"Gogoro 電池交換站","brand:wikidata":"Q19880591","name":"Gogoro 電池交換站","operator":"Gogoro 電池交換站","operator:wikidata":"Q19880591"}},
{"type":"Feature","geometry":{"type":"Point","coordinates":[120.5887668,24.3433023]},"properties":{"amenity":"charging_station","branch":"中油大安加油站","brand":"Gogoro 電池交換站","brand:wikidata":"Q19880591","name":"Gogoro 電池交換站","operator":"Gogoro 電池交換站","operator:wikidata":"Q19880591"}},
{"type":"Feature","geometry":{"type":"Point","coordinates":[120.6960391,24.3131353]},"properties":{"amenity":"charging_station","branch":"台糖月眉加油站","name":"Gogoro 電池交換站","operator":"英屬開曼群島商睿能新動力股份有限公司台灣分公司"}},
{"type":"Feature","geometry":{"type":"Point","coordinates":[120.7238419,24.3156965]},"properties":{"amenity":"charging_station","branch":"中油后里加油站","name":"Gogoro 電池交換站","operator":"英屬開曼群島商睿能新動力股份有限公司台灣分公司"}},
{"type":"Feature","geometry":{"type":"Point","coordinates":[120.7216948,24.3054759]},"properties":{"amenity":"charging_station","branch":"全聯后里文明店站","name":"Gogoro 電池交換站","operator":"英屬開曼群島商睿能新動力股份有限公司台灣分公司"}},
{"type":"Feature","geometry":{"type":"Point","coordinates":[120.7239745,24.2977534]},"properties":{"amenity":"charging_station","branch":"台糖七星加油站","name":"Gogoro 電池交換站","operator":"英屬開曼群島商睿能新動力股份有限公司台灣分公司"}},
{"type":"Feature","geometry":{"type":"Point","coordinates":[120.808869,24.2482046]},"properties":{"addr:city":"臺中市","addr:country":"TW","addr:district":"新社區","addr:housenumber":"13","addr:postcode":"42641","addr:street":"中和街","amenity":"charging_station","branch":"全聯台中新社店站","name":"Gogoro 電池交換站","operator":"英屬開曼群島商睿能新動力股份有限公司台灣分公司"}},
{"type":"Feature","geometry":{"type":"Point","coordinates":[120.6685612,24.2365062]},"properties":{"amenity":"charging_station","branch":"全聯大雅民生店站","name":"Gogoro 電池交換站","operator":"英屬開曼群島商睿能新動力股份有限公司台灣分公司"}},
{"type":"Feature","geometry":{"type":"Point","coordinates":[120.6481926,24.2292134]},"properties":{"amenity":"charging_station","branch":"臺中市大雅區公所站","brand":"Gogoro 電池交換站","brand:wikidata":"Q19880591","name":"Gogoro 電池交換站","operator":"Gogoro 電池交換站","operator:wikidata":"Q19880591"}},
{"type":"Feature","geometry":{"type":"Point","coordinates":[120.6527901,24.2261722]},"properties":{"amenity":"charging_station","branch":"全聯台中雅環店站","brand":"Gogoro 電池交換站","brand:wikidata":"Q19880591","name":"Gogoro 電池交換站","operator":"Gogoro 電池交換站","operator:wikidata":"Q19880591"}},
{"type":"Feature","geometry":{"type":"Point","coordinates":[120.648397,24.2178542]},"properties":{"amenity":"charging_station","branch":"中油大雅中清路加油站","brand":"Gogoro 電池交換站","brand:wikidata":"Q19880591","name":"Gogoro 電池交換站","operator":"Gogoro 電池交換站","operator:wikidata":"Q19880591"}},
{"type":"Feature","geometry":{"type":"Point","coordinates":[120.5884364,24.1370666]},"properties":{"amenity":"charging_station","brand":"Tesla, Inc.","brand:wikidata":"Q478214","name":"Tesla","short_name":"Tesla"}},
{"type":"Feature","geometry":{"type":"Point","coordinates":[120.7771289,24.2745708]},"properties":{"addr:city":"臺中市","addr:country":"TW","addr:district":"石岡區","addr:housenumber":"118","addr:postcode":"42265","addr:street":"明德路","amenity":"charging_station","branch":"7-ELEVEN 新石岡店站","name":"Gogoro 電池交換站","operator":"英屬開曼群島商睿能新動力股份有限公司台灣分公司"}},
{"type":"Feature","geometry":{"type":"Point","coordinates":[120.8261728,24.2647406]},"properties":{"addr:city":"臺中市","addr:country":"TW","addr:district":"東勢區","addr:housenumber":"41之5","addr:postcode":"42341","addr:street":"東蘭路","amenity":"charging_station","branch":"7-ELEVEN 東泰店站","brand":"Gogoro 電池交換站","brand:wikidata":"Q19880591","name":"Gogoro 電池交換站","operator":"Gogoro 電池交換站","operator:wikidata":"Q19880591"}},
{"type":"Feature","geometry":{"type":"Point","coordinates":[120.6942907,24.2157732]},"properties":{"addr:city":"臺中市","addr:country":"TW","addr:district":"潭子區","addr:housenumber":"107","addr:street":"雅潭路二段","amenity":"charging_station","branch":"北基雅潭加油站","brand":"Gogoro 電池交換站","brand:wikidata":"Q19880591","name":"Gogoro 電池交換站","operator":"Gogoro 電池交換站","operator:wikidata":"Q19880591","postal_code":"42756"}},
{"type":"Feature","geometry":{"type":"Point","coordinates":[120.6825528,24.1776878]},"properties":{"addr:city":"臺中市","addr:country":"TW","addr:district":"北屯區","addr:housenumber":"225","addr:street":"崇德二路二段","amenity":"charging_station","branch":"車麗屋台中崇德店站","name":"Gogoro 電池交換站","operator":"英屬開曼群島商睿能新動力股份有限公司台灣分公司","postal_code":"40670"}},
{"type":"Feature","geometry":{"type":"Point","coordinates":[120.1864242,22.9776184]},"properties":{"amenity":"charging_station","description":"新興國中"}},
{"type":"Feature","geometry":{"type":"Point","coordinates":[120.194509,22.9842916]},"properties":{"amenity":"charging_station","description":"廣州里活動中心"}},
{"type":"Feature","geometry":{"type":"Point","coordinates":[121.5736946,25.0316627]},"properties":{"amenity":"charging_station","brand":"Gogoro 電池交換站","brand:wikidata":"Q19880591","name":"gogoro電池交換站","operator":"Gogoro 電池交換站","operator:wikidata":"Q19880591"}},
{"type":"Feature","geometry":{"type":"Point","coordinates":[121.5099101,25.0658605]},"properties":{"amenity":"charging_station","operator":"Gogoro"}},
{"type":"Feature","geometry":{"type":"Point","coordinates":[120.8297391,24.2528393]},"properties":{"addr:city":"臺中市","addr:country":"TW","addr:district":"東勢區","addr:housenumber":"263","addr:postcode":"42343","addr:street":"豐勢路","amenity":"charging_station","branch":"Gogoro 東勢豐勢店站","brand":"Gogoro 電池交換站","brand:wikidata":"Q19880591","name":"Gogoro 電池交換站","operator":"Gogoro 電池交換站","operator:wikidata":"Q19880591"}},
{"type":"Feature","geometry":{"type":"Point","coordinates":[120.3875937,23.4966086]},"properties":{"amenity":"charging_station","brand":"Tesla, Inc.","brand:wikidata":"Q478214","name":"特斯拉 嘉義水牛公園超級充電站","operator":"Tesla","short_name":"Tesla"}},
{"type":"Feature","geometry":{"type":"Point","coordinates":[120.7059623,24.2204081]},"properties":{"addr:city":"臺中市","addr:country":"TW","addr:district":"潭子區","addr:housenumber":"11","addr:street":"中山路三段","amenity":"charging_station","branch":"寶熊漁樂碼頭站","brand":"Gogoro 電池交換站","brand:wikidata":"Q19880591","name":"Gogoro 電池交換站","operator":"Gogoro 電池交換站","operator:wikidata":"Q19880591"}},
{"type":"Feature","geometry":{"type":"Point","coordinates":[120.6897245,22.1991671]},"properties":{"addr:city":"屏東縣","addr:country":"TW","addr:district":"枋山鄉","addr:housenumber":"53","addr:province":"台灣省","addr:street":"舊庄路","amenity":"charging_station","branch":"中油楓港加油站","brand":"Gogoro 電池交換站","brand:wikidata":"Q19880591","name":"Gogoro 電池交換站","operator":"Gogoro 電池交換站","operator:wikidata":"Q19880591"}},
{"type":"Feature","geometry":{"type":"Point","coordinates":[120.5957685,22.3827671]},"properties":{"addr:city":"屏東縣","addr:country":"TW","addr:district":"枋寮鄉","addr:housenumber":"143","addr:province":"台灣省","addr:street":"中山路二段","amenity":"charging_station","branch":"7-ELEVEN 維軒店站","brand":"Gogoro Network","name":"Gogoro 電池交換站","operator":"英屬開曼群島商睿能新動力股份有限公司台灣分公司"}},
{"type":"Feature","geometry":{"type":"Point","coordinates":[120.8811502,22.2916162]},"properties":{"addr:city":"臺東縣","addr:country":"TW","addr:district":"達仁鄉","addr:housenumber":"216","addr:province":"台灣省","addr:street":"森永","amenity":"charging_station","branch":"7-ELEVEN 安朔店站","brand":"Gogoro 電池交換站","brand:wikidata":"Q19880591","name":"Gogoro 電池交換站","operator":"Gogoro 電池交換站","operator:wikidata":"Q19880591"}},
{"type":"Feature","geometry":{"type":"Point","coordinates":[120.8948502,22.341632]},"properties":{"addr:city":"臺東縣","addr:country":"TW","addr:district":"大武鄉","addr:housenumber":"8","addr:province":"台灣省","addr:street":"尚武路","amenity":"charging_station","branch":"中油大武加油站","brand":"Gogoro 電池交換站","brand:wikidata":"Q19880591","name":"Gogoro 電池交換站","operator":"Gogoro 電池交換站","operator:wikidata":"Q19880591"}},
{"type":"Feature","geometry":{"type":"Point","coordinates":[121.0068252,22.6129544]},"properties":{"addr:city":"臺東縣","addr:country":"TW","addr:district":"太麻里鄉","addr:housenumber":"157","addr:province":"台灣省","addr:street":"太麻里街","amenity":"charging_station","branch":"中油太麻里加油站","brand":"Gogoro 電池交換站","brand:wikidata":"Q19880591","brand:wikipedia":"zh:Gogoro","name":"Gogoro 電池交換站","operator":"Gogoro 電池交換站","operator:wikidata":"Q19880591","operator:wikipedia":"zh:Gogoro"}},
{"type":"Feature","geometry":{"type":"Point","coordinates":[121.1379499,22.7420968]},"properties":{"addr:city":"臺東縣","addr:country":"TW","addr:district":"台東市","addr:housenumber":"89","addr:province":"台灣省","addr:street":"漢陽南路","amenity":"charging_station","branch":"全聯台東漢陽店站","brand":"Gogoro 電池交換站","brand:wikidata":"Q19880591","name":"Gogoro 電池交換站","operator":"Gogoro 電池交換站","operator:wikidata":"Q19880591"}},
{"type":"Feature","geometry":{"type":"Point","coordinates":[121.144778,22.7552258]},"properties":{"addr:city":"臺東縣","addr:country":"TW","addr:district":"台東市","addr:housenumber":"191之1","addr:province":"台灣省","addr:street":"新生路","amenity":"charging_station","branch":"Gogoro 台東新生門市站","brand":"Gogoro 電池交換站","brand:wikidata":"Q19880591","name":"Gogoro 電池交換站","operator":"Gogoro 電池交換站","operator:wikidata":"Q19880591"}},
{"type":"Feature","geometry":{"type":"Point","coordinates":[121.0922716,22.8529643]},"properties":{"addr:city":"臺東縣","addr:country":"TW","addr:district":"卑南鄉","addr:housenumber":"32","addr:province":"台灣省","addr:street":"忠孝路","amenity":"charging_station","branch":"中油初鹿加油站","brand":"Gogoro Network","name":"Gogoro 電池交換站","operator":"英屬開曼群島商睿能新動力股份有限公司台灣分公司"}},
{"type":"Feature","geometry":{"type":"Point","coordinates":[121.2127979,23.1208515]},"properties":{"addr:city":"臺東縣","addr:country":"TW","addr:district":"池上鄉","addr:housenumber":"25","addr:province":"台灣省","addr:street":"中山路","amenity":"charging_station","branch":"中油池上加油站","brand":"Gogoro 電池交換站","brand:wikidata":"Q19880591","name":"Gogoro 電池交換站","operator":"Gogoro 電池交換站","operator:wikidata":"Q19880591"}},
{"type":"Feature","geometry":{"type":"Point","coordinates":[121.2522139,23.1827391]},"properties":{"addr:city":"花蓮縣","addr:country":"TW","addr:district":"富里鄉","addr:housenumber":"85","addr:province":"台灣省","addr:street":"中興路","amenity":"charging_station","branch":"中油富里加油站","brand":"Gogoro Network","name":"Gogoro 電池交換站","operator":"英屬開曼群島商睿能新動力股份有限公司台灣分公司"}},
{"type":"Feature","geometry":{"type":"Point","coordinates":[121.3124058,23.3336659]},"properties":{"addr:city":"花蓮縣","addr:country":"TW","addr:district":"玉里鎮","addr:housenumber":"219","addr:province":"台灣省","addr:street":"大同路","amenity":"charging_station","branch":"中油玉里加油站","brand":"Gogoro 電池交換站","brand:wikidata":"Q19880591","name":"Gogoro 電池交換站","operator":"Gogoro 電池交換站","operator:wikidata":"Q19880591"}},
{"type":"Feature","geometry":{"type":"Point","coordinates":[121.3761381,23.4911843]},"properties":{"addr:city":"花蓮縣","addr:country":"TW","addr:district":"瑞穗鄉","addr:housenumber":"105","addr:province":"台灣省","addr:street":"中正南路一段","amenity":"charging_station","branch":"中油瑞穗加油站","brand":"Gogoro 電池交換站","brand:wikidata":"Q19880591","name":"Gogoro 電池交換站","operator":"Gogoro 電池交換站","operator:wikidata":"Q19880591"}},
{"type":"Feature","geometry":{"type":"Point","coordinates":[121.4178213,23.6534092]},"properties":{"addr:city":"花蓮縣","addr:country":"TW","addr:district":"光復鄉","addr:housenumber":"232","addr:province":"台灣省","addr:street":"中山路一段","amenity":"charging_station","branch":"台糖大進加油站","brand":"Gogoro Network","name":"Gogoro 電池交換站","operator":"英屬開曼群島商睿能新動力股份有限公司台灣分公司"}},
{"type":"Feature","geometry":{"type":"Point","coordinates":[121.5087426,23.8673732]},"properties":{"addr:city":"花蓮縣","addr:country":"TW","addr:district":"壽豐鄉","addr:housenumber":"1","addr:province":"台灣省","addr:street":"壽豐路","amenity":"charging_station","branch":"中油壽豐加油站","brand":"Gogoro 電池交換站","brand:en":"Gogoro Network","brand:wikidata":"Q19880591","brand:wikipedia":"zh:Gogoro","name":"Gogoro 電池交換站","operator":"Gogoro 電池交換站","operator:wikidata":"Q19880591","operator:wikipedia":"zh:Gogoro"}},
{"type":"Feature","geometry":{"type":"Point","coordinates":[121.5502043,23.9535705]},"properties":{"addr:city":"花蓮縣","addr:country":"TW","addr:district":"吉安鄉","addr:housenumber":"262之1","addr:province":"台灣省","addr:street":"吉安路五段","amenity":"charging_station","branch":"7-ELEVEN 姐妹店站","brand":"Gogoro Network","name":"Gogoro 電池交換站","operator":"英屬開曼群島商睿能新動力股份有限公司台灣分公司"}},
{"type":"Feature","geometry":{"type":"Point","coordinates":[121.6014038,23.9556891]},"properties":{"addr:city":"花蓮縣","addr:country":"TW","addr:district":"吉安鄉","addr:housenumber":"116","addr:province":"台灣省","addr:street":"南濱路一段","amenity":"charging_station","branch":"7-ELEVEN 南濱店站","brand":"Gogoro 電池交換站","brand:wikidata":"Q19880591","name":"Gogoro 電池交換站","operator":"Gogoro 電池交換站","operator:wikidata":"Q19880591"}},
{"type":"Feature","geometry":{"type":"Point","coordinates":[121.5896018,23.9641341]},"properties":{"addr:city":"花蓮縣","addr:country":"TW","addr:district":"吉安鄉","addr:housenumber":"6","addr:province":"台灣省","addr:street":"中正路二段","amenity":"charging_station","branch":"中油南埔加油站","brand":"Gogoro 電池交換站","brand:wikidata":"Q19880591","name":"Gogoro 電池交換站","operator":"Gogoro 電池交換站","operator:wikidata":"Q19880591"}},
{"type":"Feature","geometry":{"type":"Point","coordinates":[121.6002922,23.9753166]},"properties":{"addr:city":"花蓮縣","addr:country":"TW","addr:district":"花蓮市","addr:housenumber":"266","addr:province":"台灣省","addr:street":"中華路","amenity":"charging_station","branch":"Gogoro 花蓮中華授權經銷門市站","brand":"Gogoro 電池交換站","brand:wikidata":"Q19880591","name":"Gogoro 電池交換站","operator":"Gogoro 電池交換站","operator:wikidata":"Q19880591"}},
{"type":"Feature","geometry":{"type":"Point","coordinates":[120.4496373,23.4821495]},"properties":{"amenity":"charging_station"}},
{"type":"Feature","geometry":{"type":"Point","coordinates":[120.4440522,23.4545087]},"properties":{"amenity":"charging_station","brand":"ChargePoint","brand:wikidata":"Q5176149","fee":"yes","name":"ChargePoint","operator":"ChargePoint","operator:wikidata":"Q5176149"}},
{"type":"Feature","geometry":{"type":"Point","coordinates":[120.454186,23.4688106]},"properties":{"amenity":"charging_station"}},
{"type":"Feature","geometry":{"type":"Point","coordinates":[121.5392067,25.0045327]},"properties":{"amenity":"charging_station","fee":"yes","network":"Gogoro","opening_hours":"24/7","operator":"Gogoro"}},
{"type":"Feature","geometry":{"type":"Point","coordinates":[120.4694739,23.477528]},"properties":{"amenity":"charging_station","fee":"yes","name":"GoStation","operator":"gogoro"}},
{"type":"Feature","geometry":{"type":"Point","coordinates":[120.4435727,23.4557261]},"properties":{"amenity":"charging_station","name":"GoStation"}},
{"type":"Feature","geometry":{"type":"Point","coordinates":[120.4422656,23.4745881]},"properties":{"amenity":"charging_station","name":"GoStation"}},
{"type":"Feature","geometry":{"type":"Point","coordinates":[121.5426019,25.053603]},"properties":{"amenity":"charging_station","description":"Gogoro scooter batteries station","fee":"yes","name":"Gogoro","operator":"Gogoro"}},
{"type":"Feature","geometry":{"type":"Point","coordinates":[121.4316672,25.0319072]},"properties":{"amenity":"charging_station","capacity":"2","name":"BMW i 直流高速充電站","operator":"BMW","operator:wikidata":"Q26678"}},
{"type":"Feature","geometry":{"type":"Point","coordinates":[121.4309832,25.0343321]},"properties":{"amenity":"charging_station","brand":"Tesla Supercharger","brand:wikidata":"Q17089620","brand:wikipedia":"en:Tesla Supercharger","name":"Tesla Supercharger","operator":"Tesla, Inc.","operator:wikidata":"Q478214","short_name":"Tesla"}},
{"type":"Feature","geometry":{"type":"Point","coordinates":[121.5384409,25.0040183]},"properties":{"amenity":"charging_station","charging":"battery_swap","fee":"yes","network":"Ionex","opening_hours":"24/7","operator":"光陽機車","scooter":"yes"}},
{"type":"Feature","geometry":{"type":"Point","coordinates":[120.7062765,24.2130359]},"properties":{"addr:city":"臺中市","addr:country":"TW","addr:district":"潭子區","addr:housenumber":"352-1","addr:street":"中山路二段","amenity":"charging_station","branch":"臺鐵潭子車站","brand":"Gogoro 電池交換站","brand:wikidata":"Q19880591","brand:wikipedia":"zh:Gogoro","name":"Gogoro 電池交換站","operator":"Gogoro 電池交換站","operator:wikidata":"Q19880591","operator:wikipedia":"zh:Gogoro"}},
{"type":"Feature","geometry":{"type":"Point","coordinates":[120.7144247,24.2482461]},"properties":{"addr:city":"臺中市","addr:country":"TW","addr:district":"豐原區","addr:housenumber":"136","addr:street":"中興路","amenity":"charging_station","branch":"臺中市政府衛生局站","brand":"Gogoro 電池交換站","brand:wikidata":"Q19880591","brand:wikipedia":"zh:Gogoro","name":"Gogoro 電池交換站","operator":"Gogoro 電池交換站","operator:wikidata":"Q19880591","operator:wikipedia":"zh:Gogoro"}},
{"type":"Feature","geometry":{"type":"Point","coordinates":[120.8790733,24.1736041]},"properties":{"addr:city":"臺中市","addr:country":"TW","addr:district":"和平區","addr:housenumber":"235-2","addr:street":"東關路三段","amenity":"charging_station","branch":"全家和平農會店站","brand":"Gogoro 電池交換站","brand:wikidata":"Q19880591","brand:wikipedia":"zh:Gogoro","name":"Gogoro 電池交換站","operator":"Gogoro 電池交換站","operator:wikidata":"Q19880591","operator:wikipedia":"zh:Gogoro"}},
{"type":"Feature","geometry":{"type":"Point","coordinates":[121.3051184,25.0143029]},"properties":{"amenity":"charging_station","brand":"Gogoro 電池交換站","brand:wikidata":"Q19880591","brand:wikipedia":"zh:Gogoro","name":"Gogoro 電池交換站","operator":"Gogoro 電池交換站","operator:wikidata":"Q19880591","operator:wikipedia":"zh:Gogoro"}},
{"type":"Feature","geometry":{"type":"Point","coordinates":[121.4959855,25.078967]},"properties":{"amenity":"charging_station","operator":"Gogoro Taiwan"}},
{"type":"Feature","geometry":{"type":"Point","coordinates":[121.4910825,25.07215]},"properties":{"amenity":"charging_station","brand":"Gogoro 電池交換站","brand:wikidata":"Q19880591","name":"Gogoro 電池交換站","operator":"Gogoro 電池交換站","operator:wikidata":"Q19880591"}},
{"type":"Feature","geometry":{"type":"Point","coordinates":[121.2941035,24.9557994]},"properties":{"amenity":"charging_station","brand":"Gogoro 電池交換站","brand:wikidata":"Q19880591","brand:wikipedia":"zh:Gogoro","name":"Gogoro 電池交換站","operator":"Gogoro 電池交換站","operator:wikidata":"Q19880591","operator:wikipedia":"zh:Gogoro"}},
{"type":"Feature","geometry":{"type":"Point","coordinates":[121.2948077,24.9610848]},"properties":{"amenity":"charging_station","brand":"Gogoro 電池交換站","brand:wikidata":"Q19880591","brand:wikipedia":"zh:Gogoro","name":"Gogoro 電池交換站","operator":"Gogoro 電池交換站","operator:wikidata":"Q19880591","operator:wikipedia":"zh:Gogoro"}},
{"type":"Feature","geometry":{"type":"Point","coordinates":[121.5940535,25.0845401]},"properties":{"amenity":"charging_station","name":"Gogoro換電站"}},
{"type":"Feature","geometry":{"type":"Point","coordinates":[121.2567532,24.9378262]},"properties":{"amenity":"charging_station","brand":"Gogoro 電池交換站","brand:wikidata":"Q19880591","capacity":"40","name":"Gogoro 電池交換站","operator":"Gogoro 電池交換站","operator:wikidata":"Q19880591"}},
{"type":"Feature","geometry":{"type":"Point","coordinates":[121.4516445,25.2258639]},"properties":{"amenity":"charging_station","brand":"Gogoro 電池交換站","brand:wikidata":"Q19880591","name":"Gogoro 電池交換站","operator":"Gogoro 電池交換站","operator:wikidata":"Q19880591"}},
{"type":"Feature","geometry":{"type":"Point","coordinates":[121.4515377,25.22751]},"properties":{"amenity":"charging_station","capacity":"2","name":"YES!來電 電動車充電專用車位","operator":"裕隆電能源股份有限公司"}},
{"type":"Feature","geometry":{"type":"Point","coordinates":[121.4470085,25.1668261]},"properties":{"access":"yes","amenity":"charging_station","brand":"Gogoro 電池交換站","brand:wikidata":"Q19880591","fee":"yes","level":"0","name":"Gogoro 電池交換站","operator":"Gogoro 電池交換站","operator:wikidata":"Q19880591"}},
{"type":"Feature","geometry":{"type":"Point","coordinates":[121.300697,24.9662097]},"properties":{"amenity":"charging_station","brand":"Gogoro 電池交換站","brand:wikidata":"Q19880591","brand:wikipedia":"zh:Gogoro","name":"Gogoro 電池交換站","operator":"Gogoro 電池交換站","operator:wikidata":"Q19880591","operator:wikipedia":"zh:Gogoro"}},
{"type":"Feature","geometry":{"type":"Point","coordinates":[121.2878512,24.910349]},"properties":{"amenity":"charging_station","brand":"Gogoro 電池交換站","brand:wikidata":"Q19880591","name":"Gogoro 電池交換站","operator":"Gogoro 電池交換站","operator:wikidata":"Q19880591"}},
{"type":"Feature","geometry":{"type":"Point","coordinates":[120.9941765,24.7838559]},"properties":{"amenity":"charging_station","brand":"Gogoro 電池交換站","brand:wikidata":"Q19880591","capacity":"60","name":"Gogoro 電池交換站","operator":"Gogoro 電池交換站","operator:wikidata":"Q19880591"}},
{"type":"Feature","geometry":{"type":"Point","coordinates":[121.2836673,24.8984653]},"properties":{"amenity":"charging_station","brand":"Gogoro 電池交換站","brand:wikidata":"Q19880591","name":"Gogoro 電池交換站","operator":"Gogoro 電池交換站","operator:wikidata":"Q19880591"}},
{"type":"Feature","geometry":{"type":"Point","coordinates":[121.3055724,24.965533]},"properties":{"amenity":"charging_station","brand":"Gogoro 電池交換站","brand:wikidata":"Q19880591","name":"Gogoro 電池交換站","operator":"Gogoro 電池交換站","operator:wikidata":"Q19880591"}},
{"type":"Feature","geometry":{"type":"Point","coordinates":[120.5690533,24.2166834]},"properties":{"amenity":"charging_station","brand":"Gogoro 電池交換站","brand:wikidata":"Q19880591","name":"Gogoro 電池交換站","operator":"Gogoro 電池交換站","operator:wikidata":"Q19880591"}},
{"type":"Feature","geometry":{"type":"Point","coordinates":[120.9921606,24.781198]},"properties":{"amenity":"charging_station"}},
{"type":"Feature","geometry":{"type":"Point","coordinates":[121.2302425,25.0275034]},"properties":{"amenity":"charging_station","brand":"Gogoro 電池交換站","brand:wikidata":"Q19880591","name":"Gogoro 電池交換站","operator":"Gogoro 電池交換站","operator:wikidata":"Q19880591"}},
{"type":"Feature","geometry":{"type":"Point","coordinates":[120.2296034,23.0104041]},"properties":{"amenity":"charging_station"}},
{"type":"Feature","geometry":{"type":"Point","coordinates":[120.2463379,22.9902334]},"properties":{"amenity":"charging_station","brand":"Gogoro 電池交換站","brand:wikidata":"Q19880591","name":"Gogoro 電池交換站","operator":"Gogoro 電池交換站","operator:wikidata":"Q19880591"}},
{"type":"Feature","geometry":{"type":"Point","coordinates":[120.2179834,23.0129162]},"properties":{"amenity":"charging_station","brand":"Gogoro 電池交換站","brand:wikidata":"Q19880591","capacity":"24","name":"Gogoro 電池交換站","operator":"Gogoro 電池交換站","operator:wikidata":"Q19880591"}},
{"type":"Feature","geometry":{"type":"Point","coordinates":[120.6244596,24.1039918]},"properties":{"amenity":"charging_station","brand":"Gogoro 電池交換站","brand:wikidata":"Q19880591","name":"Gogoro 電池交換站","operator":"Gogoro 電池交換站","operator:wikidata":"Q19880591"}},
{"type":"Feature","geometry":{"type":"Point","coordinates":[121.2945864,24.9654933]},"properties":{"amenity":"charging_station","name":"ionex換電站"}},
{"type":"Feature","geometry":{"type":"Point","coordinates":[121.4127389,25.0129394]},"properties":{"amenity":"charging_station","brand":"Gogoro 電池交換站","brand:wikidata":"Q19880591","name":"Gogoro 電池交換站","note":"於全家便利商店(樹林三德店)外，旁邊有間小小的檳榔攤。","operator":"Gogoro 電池交換站","operator:wikidata":"Q19880591"}},
{"type":"Feature","geometry":{"type":"Point","coordinates":[120.1908146,22.9920582]},"properties":{"amenity":"charging_station","brand":"Gogoro 電池交換站","brand:wikidata":"Q19880591","name":"Gogoro 電池交換站","operator":"Gogoro 電池交換站","operator:wikidata":"Q19880591"}},
{"type":"Feature","geometry":{"type":"Point","coordinates":[120.1888432,22.9921323]},"properties":{"amenity":"charging_station","brand":"Gogoro 電池交換站","brand:wikidata":"Q19880591","name":"Gogoro 電池交換站","operator":"Gogoro 電池交換站","operator:wikidata":"Q19880591"}},
{"type":"Feature","geometry":{"type":"Point","coordinates":[121.3804378,25.0767122]},"properties":{"amenity":"charging_station","brand":"U-Power 新北林口站","capacity":"360kw"}},
{"type":"Feature","geometry":{"type":"Point","coordinates":[121.3651784,25.0711405]},"properties":{"amenity":"charging_station","brand":"EValue","capacity":"7kw","fee":"yes","level":"3","name":"EValue 三井林口","operator":"EValue"}},
{"type":"Feature","geometry":{"type":"Point","coordinates":[121.3569967,25.0669552]},"properties":{"amenity":"charging_station","brand":"BEGIN","fee":"yes","name":"BEGIN 林口惠民站","operator":"BEGIN"}},
{"type":"Feature","geometry":{"type":"Point","coordinates":[120.2445923,22.9902051]},"properties":{"access":"yes","amenity":"charging_station","brand":"U-Power","capacity":"720kw","covered":"yes","fee":"yes","name":"U-Power 台南裕農站","operator":"U-Power","payment:app":"yes"}},
{"type":"Feature","geometry":{"type":"Point","coordinates":[121.5530933,25.0236791]},"properties":{"amenity":"charging_station","brand":"Gogoro 電池交換站","brand:wikidata":"Q19880591","name":"Gogoro 電池交換站","operator":"Gogoro 電池交換站","operator:wikidata":"Q19880591"}},
{"type":"Feature","geometry":{"type":"Point","coordinates":[120.2477926,22.8836698]},"properties":{"amenity":"charging_station","brand":"Gogoro 電池交換站","brand:wikidata":"Q19880591","name":"Gogoro 電池交換站","operator":"Gogoro 電池交換站","operator:wikidata":"Q19880591"}},
{"type":"Feature","geometry":{"type":"Point","coordinates":[120.2478533,22.8836236]},"properties":{"amenity":"charging_station","brand":"Gogoro 電池交換站","brand:wikidata":"Q19880591","name":"Gogoro 電池交換站","operator":"Gogoro 電池交換站","operator:wikidata":"Q19880591"}},
{"type":"Feature","geometry":{"type":"Point","coordinates":[121.2241593,24.9494991]},"properties":{"amenity":"charging_station","brand":"Gogoro 電池交換站","brand:wikidata":"Q19880591","name":"Gogoro 電池交換站","operator":"Gogoro 電池交換站","operator:wikidata":"Q19880591"}},
{"type":"Feature","geometry":{"type":"Point","coordinates":[120.2165952,22.9955985]},"properties":{"amenity":"charging_station","brand":"Gogoro 電池交換站","brand:wikidata":"Q19880591","capacity":"30","covered":"yes","name":"Gogoro 電池交換站","operator":"Gogoro 電池交換站","operator:wikidata":"Q19880591"}},
{"type":"Feature","geometry":{"type":"Point","coordinates":[121.7793362,25.0446486]},"properties":{"amenity":"charging_station","brand":"Gogoro 電池交換站","brand:wikidata":"Q19880591","name":"Gogoro 電池交換站 - 全家平溪十分店站","operator":"Gogoro 電池交換站","operator:wikidata":"Q19880591"}},
{"type":"Feature","geometry":{"type":"Point","coordinates":[121.907564,25.0204941]},"properties":{"amenity":"charging_station","brand":"Gogoro 電池交換站","brand:wikidata":"Q19880591","name":"Gogoro 電池交換站 - 新北市貢寮市民活動中心站","operator":"Gogoro 電池交換站","operator:wikidata":"Q19880591"}},
{"type":"Feature","geometry":{"type":"Point","coordinates":[120.7025098,24.1970833]},"properties":{"addr:city":"臺中市","addr:country":"TW","addr:district":"潭子區","addr:housenumber":"229","addr:postcode":"427012","addr:street":"中山路一段","amenity":"charging_station","branch":"中油美得潭子加油站","brand":"Gogoro 電池交換站","brand:wikidata":"Q19880591","name":"Gogoro 電池交換站","operator":"Gogoro 電池交換站","operator:wikidata":"Q19880591"}},
{"type":"Feature","geometry":{"type":"Point","coordinates":[120.2237662,23.0104024]},"properties":{"amenity":"charging_station","brand":"Gogoro 電池交換站","brand:wikidata":"Q19880591","capacity":"30","name":"Gogoro 電池交換站","operator":"Gogoro 電池交換站","operator:wikidata":"Q19880591"}},
{"type":"Feature","geometry":{"type":"Point","coordinates":[121.4603165,25.0071263]},"properties":{"amenity":"charging_station","branch":"Gogoro板橋館前店站","brand":"Gogoro 電池交換站","brand:wikidata":"Q19880591","name":"Gogoro 電池交換站","opening_hours":"24/7","operator":"Gogoro 電池交換站","operator:wikidata":"Q19880591"}},
{"type":"Feature","geometry":{"type":"Point","coordinates":[121.4767022,25.0054687]},"properties":{"amenity":"charging_station","branch":"北基中和加油站A","brand":"Gogoro 電池交換站","brand:wikidata":"Q19880591","name":"Gogoro 電池交換站","operator":"Gogoro 電池交換站","operator:wikidata":"Q19880591"}},
{"type":"Feature","geometry":{"type":"Point","coordinates":[121.4758782,25.0034986]},"properties":{"amenity":"charging_station","branch":"新北市民享公園停車場站A","brand":"Gogoro 電池交換站","brand:wikidata":"Q19880591","name":"Gogoro 電池交換站","operator":"Gogoro 電池交換站","operator:wikidata":"Q19880591"}},
{"type":"Feature","geometry":{"type":"Point","coordinates":[121.5038335,25.0353103]},"properties":{"amenity":"charging_station","brand":"Gogoro 電池交換站","brand:wikidata":"Q19880591","name":"Gogoro 電池交換站","operator":"Gogoro 電池交換站","operator:wikidata":"Q19880591"}},
{"type":"Feature","geometry":{"type":"Point","coordinates":[120.6968006,24.0554737]},"properties":{"amenity":"charging_station","operator":"U-POWER"}},
{"type":"Feature","geometry":{"type":"Point","coordinates":[120.6461918,24.1398412]},"properties":{"amenity":"charging_station","brand":"Gogoro 電池交換站","brand:wikidata":"Q19880591","name":"Gogoro 電池交換站","operator":"Gogoro 電池交換站","operator:wikidata":"Q19880591"}},
{"type":"Feature","geometry":{"type":"Point","coordinates":[120.1923232,23.0113899]},"properties":{"amenity":"charging_station","brand":"Gogoro 電池交換站","brand:wikidata":"Q19880591","name":"Gogoro 電池交換站","operator":"Gogoro 電池交換站","operator:wikidata":"Q19880591"}},
{"type":"Feature","geometry":{"type":"Point","coordinates":[120.2292396,22.9997652]},"properties":{"access":"yes","amenity":"charging_station","brand":"Gogoro 電池交換站","brand:wikidata":"Q19880591","capacity":"90","name":"Gogoro 電池交換站","operator":"Gogoro 電池交換站","operator:wikidata":"Q19880591"}},
{"type":"Feature","geometry":{"type":"Point","coordinates":[121.4651156,24.9887013]},"properties":{"amenity":"charging_station","brand":"Gogoro 電池交換站","brand:wikidata":"Q19880591","name":"Gogoro 電池交換站土城站","operator":"Gogoro 電池交換站","operator:wikidata":"Q19880591"}},
{"type":"Feature","geometry":{"type":"Point","coordinates":[120.2152446,23.0045708]},"properties":{"amenity":"charging_station","brand":"Gogoro 電池交換站","brand:wikidata":"Q19880591","capacity":"24","name":"Gogoro 電池交換站","operator":"Gogoro 電池交換站","operator:wikidata":"Q19880591"}},
{"type":"Feature","geometry":{"type":"Point","coordinates":[121.3596322,25.0450153]},"properties":{"access":"yes","amenity":"charging_station","brand":"Gogoro Network 換電站","operator":"Gogoro Network"}},
{"type":"Feature","geometry":{"type":"Point","coordinates":[120.3077186,22.5977629]},"properties":{"amenity":"charging_station","brand":"Gogoro 電池交換站","brand:wikidata":"Q19880591","name":"Gogoro 電池交換站","operator":"Gogoro 電池交換站","operator:wikidata":"Q19880591"}},
{"type":"Feature","geometry":{"type":"Point","coordinates":[121.521982,25.2856274]},"properties":{"amenity":"charging_station","brand":"Gogoro 電池交換站","brand:wikidata":"Q19880591","motorcycle":"designated","name":"Gogoro 電池交換站","operator":"Gogoro 電池交換站","operator:wikidata":"Q19880591"}},
{"type":"Feature","geometry":{"type":"Point","coordinates":[121.6022178,25.0033699]},"properties":{"amenity":"charging_station","brand":"Gogoro 電池交換站","brand:wikidata":"Q19880591","motorcycle":"designated","name":"Gogoro 電池交換站","operator":"Gogoro 電池交換站","operator:wikidata":"Q19880591"}},
{"type":"Feature","geometry":{"type":"Point","coordinates":[120.171494,22.9959392]},"properties":{"amenity":"charging_station","brand":"Gogoro 電池交換站","brand:wikidata":"Q19880591","capacity":"60","name":"Gogoro 電池交換站","operator":"Gogoro 電池交換站","operator:wikidata":"Q19880591"}},
{"type":"Feature","geometry":{"type":"Point","coordinates":[120.1882465,23.0388165]},"properties":{"amenity":"charging_station","brand":"Gogoro 電池交換站","brand:wikidata":"Q19880591","capacity:motorcar":"30","name":"Gogoro 電池交換站","operator":"Gogoro 電池交換站","operator:wikidata":"Q19880591"}},
{"type":"Feature","geometry":{"type":"Point","coordinates":[120.9258412,23.9729786]},"properties":{"amenity":"charging_station"}},
{"type":"Feature","geometry":{"type":"Point","coordinates":[120.2313326,22.9875975]},"properties":{"amenity":"charging_station","brand":"Gogoro 電池交換站","brand:wikidata":"Q19880591","name":"Gogoro 電池交換站","operator":"Gogoro 電池交換站","operator:wikidata":"Q19880591"}},
{"type":"Feature","geometry":{"type":"Point","coordinates":[121.240664,25.081652]},"properties":{"access":"yes","amenity":"charging_station","fee":"no","level":"0"}},
{"type":"Feature","geometry":{"type":"Point","coordinates":[120.9707782,24.8195148]},"properties":{"amenity":"charging_station","brand":"Tesla Supercharger","brand:wikidata":"Q17089620","name":"Tesla Supercharger","operator":"Tesla, Inc.","operator:wikidata":"Q478214"}},
{"type":"Feature","geometry":{"type":"Point","coordinates":[120.5431616,24.2667136]},"properties":{"amenity":"charging_station","motorcar":"yes"}},
{"type":"Feature","geometry":{"type":"Point","coordinates":[120.5342795,24.2695488]},"properties":{"amenity":"charging_station","motorcar":"yes"}},
{"type":"Feature","geometry":{"type":"Point","coordinates":[120.5404191,24.2660278]},"properties":{"amenity":"charging_station","motorcar":"yes"}},
{"type":"Feature","geometry":{"type":"Point","coordinates":[120.5361882,24.2693792]},"properties":{"amenity":"charging_station","motorcar":"yes"}},
{"type":"Feature","geometry":{"type":"Point","coordinates":[120.53793,24.2676123]},"properties":{"amenity":"charging_station","motorcar":"yes"}},
{"type":"Feature","geometry":{"type":"Point","coordinates":[121.3161751,25.007321]},"properties":{"amenity":"charging_station","bicycle":"no","branch":"7-Eleven 臻愛店站","brand":"Gogoro 電池交換站","brand:wikidata":"Q19880591","capacity":"3","name":"Gogoro 電池交換站","operator":"Gogoro 電池交換站","operator:wikidata":"Q19880591","wheelchair":"yes"}},
{"type":"Feature","geometry":{"type":"Point","coordinates":[120.294183,22.6234395]},"properties":{"access":"yes","amenity":"charging_station","brand":"Ionex光陽電動車","name":"iONEX電池交換站","name:en":"iONEX Electric Vehicle Battery Exchange Stop","name:zh":"iONEX電池交換站","operator":"光陽機車"}},
{"type":"Feature","geometry":{"type":"Point","coordinates":[121.3223102,24.9957029]},"properties":{"amenity":"charging_station","brand":"Gogoro 電池交換站","brand:wikidata":"Q19880591","capacity":"1","name":"Gogoro 電池交換站","operator":"Gogoro 電池交換站","operator:wikidata":"Q19880591"}},
{"type":"Feature","geometry":{"type":"Point","coordinates":[120.4487279,23.47688]},"properties":{"amenity":"charging_station","name":"便利換電站"}},
{"type":"Feature","geometry":{"type":"Point","coordinates":[121.3198435,25.0097973]},"properties":{"amenity":"charging_station","brand":"Gogoro 電池交換站","brand:wikidata":"Q19880591","capacity":"2","name":"Gogoro 電池交換站","operator":"Gogoro 電池交換站","operator:wikidata":"Q19880591"}},
{"type":"Feature","geometry":{"type":"Point","coordinates":[121.6117678,23.9778468]},"properties":{"amenity":"charging_station","brand":"Tesla Supercharger","brand:wikidata":"Q17089620","capacity":"6","fee":"yes","level":"0","motorcar":"yes","operator":"Tesla, Inc.","operator:wikidata":"Q478214","parking:fee":"yes","socket:tesla_supercharger":"6","socket:tesla_supercharger:output":"250000"}},
{"type":"Feature","geometry":{"type":"Point","coordinates":[120.1895221,23.2442729]},"properties":{"amenity":"charging_station","name":"Gogoro"}},
{"type":"Feature","geometry":{"type":"Point","coordinates":[121.3164868,25.0162591]},"properties":{"amenity":"charging_station","brand":"Gogoro 電池交換站","brand:wikidata":"Q19880591","capacity":"2","name":"Gogoro 電池交換站","operator":"Gogoro 電池交換站","operator:wikidata":"Q19880591"}},
{"type":"Feature","geometry":{"type":"Point","coordinates":[121.5629831,24.9900077]},"properties":{"amenity":"charging_station","brand":"Gogoro 電池交換站","brand:wikidata":"Q19880591","covered":"yes","description":"全家明興店站","motorcycle":"designated","name":"Gogoro 電池交換站","operator":"Gogoro 電池交換站","operator:wikidata":"Q19880591"}},
{"type":"Feature","geometry":{"type":"Point","coordinates":[120.2202187,22.9841923]},"properties":{"amenity":"charging_station","brand":"Gogoro 電池交換站","brand:wikidata":"Q19880591","name":"Gogoro 電池交換站","operator":"Gogoro 電池交換站","operator:wikidata":"Q19880591"}},
{"type":"Feature","geometry":{"type":"Point","coordinates":[120.2088941,22.9824681]},"properties":{"amenity":"charging_station","brand":"Gogoro 電池交換站","brand:wikidata":"Q19880591","name":"Gogoro 電池交換站","operator":"Gogoro 電池交換站","operator:wikidata":"Q19880591"}},
{"type":"Feature","geometry":{"type":"Point","coordinates":[120.2189719,23.0072657]},"properties":{"amenity":"charging_station","bicycle":"no","brand":"Gogoro 電池交換站","brand:wikidata":"Q19880591","name":"Gogoro 電池交換站","operator":"Gogoro 電池交換站","operator:wikidata":"Q19880591"}},
{"type":"Feature","geometry":{"type":"Point","coordinates":[120.2191796,23.0075321]},"properties":{"amenity":"charging_station","capacity:motorcar":"2","operator":"Yes!來電"}},
{"type":"Feature","geometry":{"type":"Point","coordinates":[120.2087793,22.999036]},"properties":{"amenity":"charging_station","brand":"Gogoro 電池交換站","brand:wikidata":"Q19880591","name":"Gogoro 電池交換站","operator":"Gogoro 電池交換站","operator:wikidata":"Q19880591"}},
{"type":"Feature","geometry":{"type":"Point","coordinates":[120.5209775,23.4422173]},"properties":{"amenity":"charging_station","brand":"Gogoro 電池交換站","brand:wikidata":"Q19880591","name":"Gogoro 電池交換站","operator":"Gogoro 電池交換站","operator:wikidata":"Q19880591"}},
{"type":"Feature","geometry":{"type":"Point","coordinates":[121.5182913,25.0263089]},"properties":{"addr:city":"臺北市","addr:country":"TW","addr:district":"中正區","addr:housenumber":"90","addr:street":"和平西路一段","amenity":"charging_station","name":"Gogoro換電站"}},
{"type":"Feature","geometry":{"type":"Point","coordinates":[120.1921588,22.99312]},"properties":{"amenity":"charging_station","brand":"Gogoro 電池交換站","brand:wikidata":"Q19880591","name":"Gogoro 電池交換站","operator":"Gogoro 電池交換站","operator:wikidata":"Q19880591"}},
{"type":"Feature","geometry":{"type":"Point","coordinates":[121.5589232,25.0377852]},"properties":{"amenity":"charging_station","brand":"Gogoro 電池交換站","brand:wikidata":"Q19880591","name":"Gogoro 電池交換站","operator":"Gogoro 電池交換站","operator:wikidata":"Q19880591"}},
{"type":"Feature","geometry":{"type":"Point","coordinates":[121.566582,25.0442643]},"properties":{"amenity":"charging_station","bicycle":"no","brand":"Gogoro 電池交換站","brand:wikidata":"Q19880591","name":"Gogoro 電池交換站","operator":"Gogoro 電池交換站","operator:wikidata":"Q19880591"}},
{"type":"Feature","geometry":{"type":"Point","coordinates":[121.546046,25.0490232]},"properties":{"amenity":"charging_station","brand":"Gogoro 電池交換站","brand:wikidata":"Q19880591","name":"Gogoro 電池交換站","operator":"Gogoro 電池交換站","operator:wikidata":"Q19880591"}},
{"type":"Feature","geometry":{"type":"Point","coordinates":[120.6969844,22.0462156]},"properties":{"amenity":"charging_station"}},
{"type":"Feature","geometry":{"type":"Point","coordinates":[121.8448101,24.5688698]},"properties":{"amenity":"charging_station"}},
{"type":"Feature","geometry":{"type":"Point","coordinates":[120.2694972,22.6241255]},"properties":{"amenity":"charging_station"}},
{"type":"Feature","geometry":{"type":"Point","coordinates":[120.4368493,23.4582543]},"properties":{"access":"yes","amenity":"charging_station","brand":"Ionex光陽電動車","name":"iONEX電池交換站","operator":"光陽機車"}},
{"type":"Feature","geometry":{"type":"Point","coordinates":[120.254225,23.0247462]},"properties":{"amenity":"charging_station","brand":"Gogoro 電池交換站","brand:wikidata":"Q19880591","name":"Gogoro 電池交換站","operator":"Gogoro 電池交換站","operator:wikidata":"Q19880591"}},
{"type":"Feature","geometry":{"type":"Point","coordinates":[121.6831533,25.0742641]},"properties":{"amenity":"charging_station","brand":"U-POWER","name":"U-POWER 汐止大同站","operator":"U-POWER"}},
{"type":"Feature","geometry":{"type":"Point","coordinates":[120.3150887,22.6638605]},"properties":{"amenity":"charging_station","brand":"星洲快充充電站","socket:j1772":"4","website":"https://starcharger.com.tw/"}},
{"type":"Feature","geometry":{"type":"Point","coordinates":[120.3131079,22.6627616]},"properties":{"amenity":"charging_station","brand":"City Charging","socket:j1772":"2"}},
{"type":"Feature","geometry":{"type":"Point","coordinates":[120.2339705,22.9910541]},"properties":{"amenity":"charging_station","brand":"Gogoro 電池交換站","brand:wikidata":"Q19880591","capacity":"50","name":"Gogoro 電池交換站","operator":"Gogoro 電池交換站","operator:wikidata":"Q19880591"}},
{"type":"Feature","geometry":{"type":"Point","coordinates":[121.5085753,25.0307918]},"properties":{"addr:city":"臺北市","addr:country":"TW","addr:district":"中正區","addr:housenumber":"102","addr:street":"和平西路二段","amenity":"charging_station","name":"Gogoro換電站","opening_hours":"24/7"}},
{"type":"Feature","geometry":{"type":"Point","coordinates":[121.5207725,25.0153507]},"properties":{"addr:city":"新北市","addr:country":"TW","addr:district":"永和區","addr:housenumber":"128","addr:street":"環河東路一段","amenity":"charging_station","name":"Gogoro換電站","opening_hours":"24/7"}},
{"type":"Feature","geometry":{"type":"Point","coordinates":[121.5362183,24.4957314]},"properties":{"amenity":"charging_station","brand":"士林電機","fee":"yes","operator":"農業部林業及自然保育署宜蘭分署"}},
{"type":"Feature","geometry":{"type":"Point","coordinates":[121.2981549,24.9950759]},"properties":{"amenity":"charging_station","brand":"Gogoro 電池交換站","brand:wikidata":"Q19880591","name":"Gogoro 電池交換站","operator":"Gogoro 電池交換站","operator:wikidata":"Q19880591"}},
{"type":"Feature","geometry":{"type":"Point","coordinates":[121.2578293,25.0208225]},"properties":{"amenity":"charging_station","bicycle":"no","brand":"Gogoro 電池交換站","brand:wikidata":"Q19880591","name":"Gogoro 電池交換站","operator":"Gogoro 電池交換站","operator:wikidata":"Q19880591"}},
{"type":"Feature","geometry":{"type":"Point","coordinates":[120.538112,24.0809864]},"properties":{"amenity":"charging_station","brand":"Gogoro 電池交換站","brand:wikidata":"Q19880591","name":"Gogoro 電池交換站","operator":"Gogoro 電池交換站","operator:wikidata":"Q19880591"}},
{"type":"Feature","geometry":{"type":"Point","coordinates":[120.1946775,23.0800414]},"properties":{"amenity":"charging_station","brand":"Gogoro 電池交換站","brand:wikidata":"Q19880591","name":"Gogoro 電池交換站","operator":"Gogoro 電池交換站","operator:wikidata":"Q19880591"}},
{"type":"Feature","geometry":{"type":"Point","coordinates":[121.54259,24.9993709]},"properties":{"amenity":"charging_station","brand":"Gogoro 電池交換站","brand:wikidata":"Q19880591","name":"Gogoro 電池交換站","operator":"Gogoro 電池交換站","operator:wikidata":"Q19880591"}},
{"type":"Feature","geometry":{"type":"Point","coordinates":[121.3932308,25.0475345]},"properties":{"amenity":"charging_station"}},
{"type":"Feature","geometry":{"type":"Point","coordinates":[121.4097668,24.8280282]},"properties":{"amenity":"charging_station","brand":"EVOASIS"}},
{"type":"Feature","geometry":{"type":"Point","coordinates":[120.2105661,22.9911558]},"properties":{"amenity":"charging_station","brand":"Gogoro 電池交換站","brand:wikidata":"Q19880591","name":"Gogoro 電池交換站","operator":"Gogoro 電池交換站","operator:wikidata":"Q19880591"}},
{"type":"Feature","geometry":{"type":"Point","coordinates":[120.4952413,22.8825522]},"properties":{"amenity":"charging_station","brand":"Gogoro 電池交換站","brand:wikidata":"Q19880591","name":"Gogoro 電池交換站","operator":"Gogoro 電池交換站","operator:wikidata":"Q19880591"}},
{"type":"Feature","geometry":{"type":"Point","coordinates":[121.0233748,24.8678707]},"properties":{"amenity":"charging_station","name":"ionex"}},
{"type":"Feature","geometry":{"type":"Point","coordinates":[120.2187355,23.0064042]},"properties":{"amenity":"charging_station","brand":"Ionex","operator":"Ionex"}},
{"type":"Feature","geometry":{"type":"Point","coordinates":[120.4760022,23.9635156]},"properties":{"amenity":"charging_station","brand":"Gogoro 電池交換站","brand:wikidata":"Q19880591","name":"Gogoro 電池交換站","operator":"Gogoro 電池交換站","operator:wikidata":"Q19880591"}},
{"type":"Feature","geometry":{"type":"Point","coordinates":[120.2679359,22.6119457]},"properties":{"amenity":"charging_station","brand":"Gogoro 電池交換站","brand:wikidata":"Q19880591","name":"Gogoro 電池交換站","operator":"Gogoro 電池交換站","operator:wikidata":"Q19880591"}},
{"type":"Feature","geometry":{"type":"Point","coordinates":[121.3069982,24.969691]},"properties":{"amenity":"charging_station","brand":"U-POWER 充電站","name":"U-POWER 充電站"}},
{"type":"Feature","geometry":{"type":"Point","coordinates":[121.5737495,24.9980262]},"properties":{"amenity":"charging_station","capacity":"4","covered":"yes","fee":"yes","motorcar":"yes","name":"U-POWER","opening_hours":"24/7","socket:type1":"2","socket:type1:output":"360","socket:type2_combo":"2","socket:type2_combo:output":"360"}},
{"type":"Feature","geometry":{"type":"Point","coordinates":[121.2934442,24.9982439]},"properties":{"amenity":"charging_station","operator":"EVOASIS快速充電站"}},
{"type":"Feature","geometry":{"type":"Point","coordinates":[120.4445508,23.7096002]},"properties":{"amenity":"charging_station","brand":"Gogoro 電池交換站","brand:wikidata":"Q19880591","name":"Gogoro 電池交換站","operator":"Gogoro 電池交換站","operator:wikidata":"Q19880591"}},
{"type":"Feature","geometry":{"type":"Point","coordinates":[120.2311901,23.0083057]},"properties":{"amenity":"charging_station","brand":"Gogoro 電池交換站","brand:wikidata":"Q19880591","name":"Gogoro 電池交換站","operator":"Gogoro 電池交換站","operator:wikidata":"Q19880591"}},
{"type":"Feature","geometry":{"type":"Point","coordinates":[120.1347125,23.0685968]},"properties":{"amenity":"charging_station","brand":"Gogoro 電池交換站","brand:wikidata":"Q19880591","capacity:motorcar":"30","name":"Gogoro 電池交換站","operator":"Gogoro 電池交換站","operator:wikidata":"Q19880591"}},
{"type":"Feature","geometry":{"type":"Point","coordinates":[121.6963989,25.1569924]},"properties":{"amenity":"charging_station","bicycle":"no","fee":"yes","moped":"yes","motorcar":"no"}},
{"type":"Feature","geometry":{"type":"Point","coordinates":[121.5561181,25.0849187]},"properties":{"amenity":"charging_station","brand":"Gogoro 電池交換站","brand:wikidata":"Q19880591","name":"Gogoro 電池交換站","operator":"Gogoro 電池交換站","operator:wikidata":"Q19880591"}},
{"type":"Feature","geometry":{"type":"Point","coordinates":[121.5473529,23.9021918]},"properties":{"amenity":"charging_station","capacity":"3","covered":"no","description":"30KW-CCS1/CCS2","fee":"yes","name":"集賢館充電樁（快充）","operator":"Far EasTone Telecommunications Co. Ltd","payment:app":"yes"}},
{"type":"Feature","geometry":{"type":"Point","coordinates":[121.5425581,23.8944327]},"properties":{"amenity":"charging_station","capacity":"6","covered":"yes","description":"30KW-CCS1/CCS2","fee":"yes","name":"行政大樓充電樁（快充）","operator":"Far EasTone Telecommunications Co. Ltd","payment:app":"yes"}},
{"type":"Feature","geometry":{"type":"Point","coordinates":[121.5450979,23.8973724]},"properties":{"amenity":"charging_station","capacity":"4","covered":"no","description":"30KW-CCS1/CCS2","fee":"yes","name":"理工三館充電樁（快充）","operator":"Far EasTone Telecommunications Co. Ltd","payment:app":"yes"}},
{"type":"Feature","geometry":{"type":"Point","coordinates":[121.5451209,23.8973153]},"properties":{"amenity":"charging_station","capacity":"5","covered":"no","description":"11KW-CNS 15511/SAE J1772","fee":"yes","name":"理工三館充電樁（慢充）","operator":"Far EasTone Telecommunications Co. Ltd","payment:app":"yes"}},
{"type":"Feature","geometry":{"type":"Point","coordinates":[121.5480916,23.8954317]},"properties":{"amenity":"charging_station","capacity":"3","covered":"no","description":"30KW-CCS1/CCS2","fee":"yes","name":"東華會館充電樁（快充）","operator":"Far EasTone Telecommunications Co. Ltd","payment:app":"yes"}},
{"type":"Feature","geometry":{"type":"Point","coordinates":[121.5481261,23.8953758]},"properties":{"amenity":"charging_station","capacity":"3","covered":"no","description":"11KW-CNS 15511/SAE J1772","fee":"yes","name":"東華會館充電樁（慢充）","operator":"Far EasTone Telecommunications Co. Ltd","payment:app":"yes"}},
{"type":"Feature","geometry":{"type":"Point","coordinates":[121.5344026,23.8948194]},"properties":{"amenity":"charging_station","capacity":"4","covered":"no","description":"11KW-CNS 15511/SAE J1772","fee":"yes","name":"多容館充電樁（慢充）","operator":"Far EasTone Telecommunications Co. Ltd","payment:app":"yes"}},
{"type":"Feature","geometry":{"type":"Point","coordinates":[121.5343769,23.8949086]},"properties":{"amenity":"charging_station","capacity":"4","covered":"no","description":"30KW-CCS1/CCS2","fee":"yes","name":"多容館充電樁（快充）","operator":"Far EasTone Telecommunications Co. Ltd","payment:app":"yes"}},
{"type":"Feature","geometry":{"type":"Point","coordinates":[120.2180147,22.996648]},"properties":{"amenity":"charging_station"}},
{"type":"Feature","geometry":{"type":"Point","coordinates":[121.6961509,25.1558856]},"properties":{"amenity":"charging_station","brand":"Gogoro 電池交換站","brand:wikidata":"Q19880591","name":"Gogoro 電池交換站","operator":"Gogoro 電池交換站","operator:wikidata":"Q19880591"}},
{"type":"Feature","geometry":{"type":"Point","coordinates":[121.4109587,25.0211694]},"properties":{"amenity":"charging_station","brand":"GoStation","capacity":"60","charging_station:battery_swapping":"only","fee":"yes","network":"gogoro Network","operator":"gogoro Network","payment:app":"yes","ref":"TW2426103A"}}
]}
